timestamp_local,raw_acc_x,raw_acc_y,raw_acc_z,g_acc_x,g_acc_y,g_acc_z,raw_gx,raw_gy,raw_gz,filt_gx,filt_gy,filt_gz,temp,roll,pitch,yaw,q0,q1,q2,q3,vx,vy,vz,vx_filt,vy_filt,vz_filt,px,py,pz,stationary
2025-05-30 17:27:32.339,0.158,-0.007,9.847,0.572,0.112,19.558,-0.0277,0.0788,0.0383,-0.0177,0.0741,0.0389,33,0.37,-1.73,0.38,0.9982,0.0033,-0.0151,0.0034,13.367,1.818,471.609,12.907,1.758,455.151,223.532,30.849,7894.685,0
2025-05-30 17:27:32.393,0.167,-0.031,9.853,0.52,-0.009,19.566,-0.0064,0.0639,-0.0021,-0.0076,0.0665,0.0018,33,-0.2,-1.38,0.41,0.9982,-0.0017,-0.012,0.0035,13.38,1.819,472.114,12.922,1.76,455.674,224.178,30.937,7917.469,0
2025-05-30 17:27:32.446,0.153,-0.016,9.858,0.565,0.101,19.569,0.017,-0.049,-0.0234,0.0145,-0.0359,-0.0211,33,0.36,-1.72,0.33,0.9982,0.0032,-0.0151,0.0029,13.394,1.82,472.62,12.936,1.761,456.196,224.825,31.025,7940.278,0
2025-05-30 17:27:32.499,0.138,-0.02,9.855,0.482,0.067,19.568,0.0554,-0.0256,0.0575,0.0512,-0.025,0.0495,33,0.19,-1.32,0.48,0.9982,0.0017,-0.0116,0.0042,13.407,1.822,473.125,12.951,1.763,456.718,225.473,31.113,7963.114,0
2025-05-30 17:27:32.554,0.176,-0.009,9.871,0.602,0.112,19.581,0.0234,0.032,0.0,0.0261,0.0278,0.0048,33,0.38,-1.8,0.49,0.9982,0.0034,-0.0157,0.0043,13.421,1.825,473.629,12.965,1.765,457.24,226.121,31.201,7985.976,0
2025-05-30 17:27:32.608,0.142,-0.009,9.855,0.456,0.09,19.568,0.032,0.0426,0.1023,0.0313,0.0427,0.0923,33,0.26,-1.15,0.76,0.9982,0.0023,-0.01,0.0067,13.434,1.828,474.133,12.98,1.767,457.761,226.77,31.289,8008.864,0
2025-05-30 17:27:32.668,0.16,-0.027,9.851,0.579,0.096,19.562,0.0916,-0.0277,-0.0277,0.0855,-0.0191,-0.0159,33,0.39,-1.76,0.72,0.9982,0.0035,-0.0154,0.0063,13.446,1.831,474.636,12.994,1.769,458.281,227.42,31.378,8031.778,0
2025-05-30 17:27:32.721,0.169,-0.011,9.864,0.55,0.022,19.576,-0.0298,-0.0383,0.032,-0.0184,-0.0349,0.027,33,-0.13,-1.54,0.81,0.9982,-0.0011,-0.0135,0.007,13.461,1.832,475.139,13.009,1.771,458.801,228.07,31.466,8054.718,0
2025-05-30 17:27:32.775,0.163,-0.025,9.865,0.561,0.147,19.576,0.1065,0.0341,-0.017,0.0939,0.0288,-0.0128,33,0.68,-1.64,0.76,0.9982,0.006,-0.0143,0.0067,13.475,1.834,475.642,13.023,1.773,459.321,228.721,31.555,8077.684,0
2025-05-30 17:27:32.828,0.145,-0.022,9.86,0.521,0.024,19.572,-0.0831,0.0,-0.098,-0.0655,0.0044,-0.0897,33,-0.06,-1.51,0.51,0.9982,-0.0005,-0.0132,0.0045,13.489,1.837,476.144,13.037,1.775,459.84,229.373,31.644,8100.676,0
2025-05-30 17:27:32.884,0.176,-0.031,9.855,0.599,0.089,19.565,0.0234,0.049,0.0682,0.0144,0.0461,0.0522,33,0.38,-1.78,0.65,0.9982,0.0034,-0.0156,0.0057,13.503,1.838,476.645,13.052,1.777,460.358,230.026,31.733,8123.694,0
2025-05-30 17:27:32.938,0.151,0.002,9.874,0.462,0.093,19.588,-0.0213,0.0298,0.0213,-0.0178,0.033,0.0242,33,0.21,-1.13,0.72,0.9982,0.0019,-0.0099,0.0063,13.516,1.841,477.147,13.066,1.779,460.876,230.679,31.822,8146.738,0
2025-05-30 17:27:32.992,0.153,0.016,9.846,0.542,0.142,19.557,-0.0128,0.0192,0.0192,-0.0134,0.0221,0.0195,33,0.41,-1.59,0.77,0.9982,0.0037,-0.0139,0.0068,13.528,1.845,477.647,13.08,1.781,461.394,231.333,31.911,8169.808,0
2025-05-30 17:27:33.045,0.158,-0.013,9.826,0.576,-0.007,19.537,-0.0511,-0.032,0.0234,-0.0475,-0.025,0.0229,33,-0.29,-1.76,0.86,0.9982,-0.0024,-0.0154,0.0074,13.542,1.846,478.146,13.095,1.783,461.911,231.988,32.0,8192.903,0
2025-05-30 17:27:33.098,0.158,-0.014,9.838,0.546,0.097,19.55,0.032,0.0107,0.0277,0.0239,0.0087,0.027,33,0.33,-1.58,0.92,0.9982,0.003,-0.0138,0.0081,13.556,1.847,478.644,13.109,1.785,462.427,232.643,32.089,8216.024,0
2025-05-30 17:27:33.153,0.162,-0.023,9.838,0.589,-0.015,19.549,-0.0277,-0.0149,0.0341,-0.0226,-0.011,0.0332,33,-0.28,-1.81,1.03,0.9981,-0.0023,-0.0159,0.0089,13.571,1.847,479.142,13.123,1.787,462.943,233.3,32.178,8239.172,0
2025-05-30 17:27:33.207,0.145,-0.023,9.862,0.508,0.046,19.575,-0.0469,0.0341,0.0277,-0.0446,0.0311,0.0281,33,0.08,-1.43,1.09,0.9982,0.0009,-0.0125,0.0096,13.585,1.847,479.64,13.137,1.789,463.458,233.956,32.268,8262.345,0
2025-05-30 17:27:33.262,0.174,-0.022,9.864,0.616,0.075,19.574,-0.0149,0.0192,0.0959,-0.018,0.0219,0.0889,33,0.24,-1.9,1.34,0.9981,0.0023,-0.0166,0.0118,13.6,1.848,480.138,13.152,1.791,463.973,234.614,32.357,8285.543,0
2025-05-30 17:27:33.315,0.145,-0.009,9.833,0.518,0.091,19.545,-0.0107,-0.0682,-0.0554,-0.0115,-0.0576,-0.0412,33,0.26,-1.49,1.22,0.9982,0.0024,-0.013,0.0107,13.614,1.85,480.635,13.166,1.792,464.487,235.272,32.447,8308.768,0
2025-05-30 17:27:33.369,0.178,-0.022,9.844,0.66,0.07,19.553,0.0383,-0.0298,-0.0128,0.0333,-0.031,-0.0158,33,0.21,-2.13,1.18,0.9981,0.002,-0.0186,0.0103,13.63,1.852,481.131,13.18,1.794,465.001,235.931,32.537,8332.018,0
2025-05-30 17:27:33.423,0.171,-0.031,9.851,0.542,0.09,19.563,0.0959,0.0341,0.0511,0.0895,0.0291,0.0442,33,0.38,-1.49,1.31,0.9982,0.0035,-0.013,0.0115,13.646,1.854,481.626,13.195,1.796,465.514,236.591,32.627,8355.293,0
2025-05-30 17:27:33.476,0.156,-0.007,9.864,0.56,0.001,19.575,-0.1172,0.0895,0.0383,-0.0966,0.085,0.0388,33,-0.28,-1.67,1.43,0.9981,-0.0022,-0.0147,0.0125,13.66,1.855,482.122,13.209,1.798,466.027,237.252,32.716,8378.595,0
2025-05-30 17:27:33.530,0.154,-0.029,9.853,0.497,0.089,19.566,0.0447,0.0852,0.0959,0.0305,0.0868,0.09,33,0.37,-1.32,1.67,0.9981,0.0034,-0.0115,0.0147,13.673,1.855,482.618,13.223,1.8,466.539,237.913,32.806,8401.922,0
2025-05-30 17:27:33.585,0.162,-0.029,9.849,0.571,0.036,19.561,-0.0021,0.0213,-0.0746,0.001,0.0294,-0.0583,33,0.06,-1.71,1.52,0.9981,0.0007,-0.0149,0.0133,13.686,1.857,483.112,13.238,1.801,467.051,238.575,32.897,8425.274,0
2025-05-30 17:27:33.638,0.196,-0.018,9.855,0.67,0.102,19.564,-0.0511,-0.017,-0.0085,-0.046,-0.0108,-0.0137,33,0.38,-2.08,1.46,0.9981,0.0036,-0.0182,0.0129,13.703,1.858,483.606,13.252,1.803,467.562,239.237,32.987,8448.652,0
2025-05-30 17:27:33.694,0.138,-0.022,9.844,0.488,0.049,19.557,-0.0426,0.0703,-0.017,-0.0431,0.0638,-0.0169,33,0.09,-1.36,1.42,0.9982,0.0009,-0.0119,0.0124,13.719,1.86,484.1,13.267,1.805,468.073,239.901,33.077,8472.056,0
2025-05-30 17:27:33.745,0.147,-0.022,9.855,0.609,0.085,19.564,-0.0213,-0.0703,0.0724,-0.0236,-0.0553,0.0633,33,0.3,-2.01,1.59,0.9981,0.0029,-0.0176,0.014,13.732,1.862,484.593,13.281,1.807,468.583,240.565,33.167,8495.484,0
2025-05-30 17:27:33.799,0.169,-0.022,9.862,0.541,0.035,19.574,-0.0469,-0.0043,-0.0277,-0.0447,-0.0078,-0.0188,33,0.01,-1.49,1.54,0.9981,0.0003,-0.013,0.0135,13.747,1.863,485.086,13.295,1.808,469.093,241.229,33.258,8518.939,0
2025-05-30 17:27:33.855,0.142,-0.025,9.862,0.533,0.153,19.573,0.0597,-0.0085,-0.0298,0.0491,-0.0069,-0.0289,33,0.72,-1.6,1.45,0.9981,0.0064,-0.0139,0.0127,13.76,1.865,485.578,13.31,1.81,469.602,241.895,33.348,8542.42,0
2025-05-30 17:27:33.909,0.149,-0.032,9.862,0.481,0.056,19.575,0.017,0.1193,0.1385,0.0201,0.1083,0.1216,33,0.19,-1.25,1.81,0.9981,0.0019,-0.0109,0.0159,13.772,1.869,486.07,13.324,1.812,470.111,242.561,33.439,8565.926,0
2025-05-30 17:27:33.963,0.174,-0.034,9.856,0.627,0.052,19.566,0.032,-0.0682,0.1832,0.0307,-0.049,0.1769,33,0.18,-1.96,2.32,0.998,0.0019,-0.0171,0.0203,13.786,1.87,486.562,13.338,1.814,470.619,243.228,33.53,8589.457,0
2025-05-30 17:27:34.017,0.167,-0.004,9.849,0.54,0.082,19.562,-0.0874,-0.0213,0.032,-0.0757,-0.0225,0.0463,33,0.18,-1.49,2.44,0.998,0.0019,-0.013,0.0214,13.801,1.871,487.053,13.353,1.816,471.126,243.896,33.62,8613.014,0
2025-05-30 17:27:34.071,0.153,-0.016,9.853,0.619,0.071,19.562,-0.1023,-0.0192,-0.115,-0.0997,-0.0179,-0.0991,33,0.19,-2.04,2.15,0.998,0.002,-0.0178,0.0188,13.816,1.873,487.543,13.367,1.817,471.634,244.564,33.711,8636.596,0
2025-05-30 17:27:34.124,0.167,-0.038,9.869,0.541,0.079,19.581,0.1257,-0.0064,-0.0043,0.103,-0.006,-0.0139,33,0.36,-1.5,2.12,0.998,0.0034,-0.0131,0.0185,13.832,1.875,488.033,13.381,1.819,472.14,245.233,33.802,8660.203,0
2025-05-30 17:27:34.178,0.183,-0.032,9.849,0.628,0.031,19.56,0.0149,0.0064,0.032,0.0236,0.0067,0.0272,33,0.05,-1.91,2.21,0.998,0.0007,-0.0167,0.0193,13.847,1.876,488.522,13.396,1.821,472.646,245.903,33.893,8683.835,0
2025-05-30 17:27:34.233,0.147,-0.023,9.853,0.489,0.06,19.566,-0.0383,0.0234,-0.0426,-0.0323,0.0233,-0.0358,33,0.16,-1.31,2.1,0.9981,0.0016,-0.0114,0.0184,13.861,1.876,489.011,13.41,1.823,473.152,246.573,33.984,8707.492,0
2025-05-30 17:27:34.286,0.16,-0.014,9.844,0.577,0.112,19.555,0.0511,0.0405,0.1257,0.0427,0.0403,0.1094,33,0.41,-1.75,2.41,0.998,0.0039,-0.0152,0.0211,13.874,1.879,489.499,13.424,1.824,473.657,247.245,34.076,8731.175,0
2025-05-30 17:27:34.341,0.153,-0.025,9.853,0.527,-0.018,19.565,-0.0937,-0.0383,0.0383,-0.0802,-0.0289,0.0453,33,-0.28,-1.5,2.55,0.998,-0.0022,-0.0132,0.0222,13.887,1.88,489.986,13.439,1.826,474.162,247.916,34.167,8754.883,0
2025-05-30 17:27:34.395,0.154,-0.007,9.844,0.571,0.099,19.555,0.017,-0.0597,0.0831,0.0072,-0.055,0.0791,33,0.3,-1.75,2.76,0.9979,0.003,-0.0152,0.0241,13.901,1.88,490.473,13.453,1.828,474.666,248.589,34.258,8778.616,0
2025-05-30 17:27:34.447,0.163,-0.02,9.842,0.52,0.009,19.555,-0.0298,-0.0277,0.0469,-0.0262,-0.0289,0.0499,33,-0.15,-1.4,2.91,0.9979,-0.001,-0.0122,0.0254,13.914,1.881,490.96,13.467,1.829,475.169,249.262,34.35,8802.375,0
2025-05-30 17:27:34.502,0.167,-0.005,9.88,0.595,0.098,19.59,-0.0192,-0.0469,-0.017,-0.02,-0.0435,-0.0105,33,0.28,-1.81,2.87,0.9979,0.0029,-0.0158,0.0251,13.928,1.881,491.446,13.481,1.831,475.672,249.937,34.441,8826.158,0
2025-05-30 17:27:34.556,0.149,-0.023,9.846,0.499,0.095,19.558,0.1172,-0.0277,0.0447,0.1034,-0.0277,0.039,33,0.37,-1.36,2.98,0.9979,0.0036,-0.0118,0.0261,13.942,1.884,491.933,13.496,1.833,476.175,250.611,34.533,8849.967,0
2025-05-30 17:27:34.611,0.169,-0.016,9.846,0.572,0.086,19.557,0.0426,0.0831,-0.017,0.0486,0.0736,-0.0116,33,0.28,-1.67,2.96,0.9979,0.0028,-0.0145,0.0259,13.954,1.887,492.418,13.51,1.834,476.677,251.287,34.625,8873.801,0
2025-05-30 17:27:34.667,0.163,-0.005,9.828,0.491,0.185,19.54,0.0682,-0.0192,0.0128,0.0661,-0.0083,0.0102,33,0.79,-1.23,2.98,0.9979,0.0072,-0.0105,0.0261,13.967,1.892,492.902,13.524,1.836,477.179,251.963,34.716,8897.66,0
2025-05-30 17:27:34.724,0.172,-0.027,9.855,0.582,0.065,19.566,-0.0554,-0.0554,-0.0469,-0.0434,-0.0491,-0.0414,33,0.21,-1.71,2.87,0.9979,0.0022,-0.0149,0.0251,13.98,1.896,493.386,13.538,1.838,477.68,252.64,34.808,8921.544,0
2025-05-30 17:27:34.778,0.203,-0.007,9.837,0.713,0.101,19.544,-0.0362,-0.0192,0.115,-0.037,-0.0206,0.0992,33,0.31,-2.3,3.15,0.9977,0.0033,-0.02,0.0276,13.998,1.898,493.869,13.552,1.84,478.18,253.318,34.9,8945.453,0
2025-05-30 17:27:34.832,0.156,-0.023,9.847,0.623,0.05,19.557,-0.0362,-0.1193,0.0149,-0.0364,-0.1079,0.0232,33,0.1,-2.04,3.22,0.9978,0.0014,-0.0178,0.0281,14.018,1.9,494.352,13.567,1.842,478.68,253.996,34.992,8969.387,0
2025-05-30 17:27:34.886,0.16,-0.005,9.853,0.511,0.12,19.566,0.0298,0.0703,-0.1364,0.0231,0.0541,-0.1206,33,0.41,-1.37,2.87,0.9979,0.0039,-0.0118,0.0251,14.032,1.903,494.834,13.581,1.844,479.18,254.675,35.085,8993.346,0
2025-05-30 17:27:34.941,0.149,-0.045,9.853,0.526,0.018,19.565,0.0533,0.0405,0.1236,0.0501,0.0434,0.099,33,0.05,-1.52,3.16,0.9978,0.0008,-0.0133,0.0276,14.044,1.904,495.317,13.595,1.846,479.679,255.355,35.177,9017.33,0
2025-05-30 17:27:34.994,0.176,-0.034,9.878,0.647,0.067,19.587,-0.0043,-0.0128,-0.1214,0.0011,-0.0056,-0.0996,33,0.27,-2.06,2.87,0.9978,0.0028,-0.018,0.0251,14.059,1.904,495.799,13.61,1.847,480.177,256.035,35.269,9041.339,0
2025-05-30 17:27:35.050,0.138,-0.036,9.846,0.565,-0.006,19.556,-0.1065,-0.115,-0.0937,-0.0959,-0.1025,-0.0945,33,-0.15,-1.81,2.6,0.9979,-0.0009,-0.0158,0.0227,14.075,1.903,496.281,13.624,1.849,480.675,256.716,35.362,9065.373,0
2025-05-30 17:27:35.104,0.158,-0.005,9.864,0.604,0.094,19.574,-0.0383,-0.1257,-0.1108,-0.0442,-0.1218,-0.1093,33,0.26,-1.92,2.28,0.998,0.0026,-0.0167,0.0199,14.09,1.904,496.762,13.639,1.851,481.173,257.398,35.454,9089.432,0
2025-05-30 17:27:35.156,0.178,-0.014,9.881,0.492,0.09,19.595,0.0426,0.0916,0.1406,0.0338,0.0718,0.1154,33,0.29,-1.15,2.61,0.998,0.0027,-0.01,0.0228,14.104,1.906,497.244,13.653,1.852,481.67,258.081,35.547,9113.516,0
2025-05-30 17:27:35.210,0.156,-0.016,9.894,0.522,0.027,19.607,-0.1129,0.0916,0.0149,-0.0984,0.0912,0.0248,33,-0.07,-1.45,2.68,0.998,-0.0003,-0.0127,0.0234,14.115,1.908,497.726,13.667,1.854,482.167,258.764,35.64,9137.624,0
2025-05-30 17:27:35.263,0.14,-0.04,9.864,0.539,0.105,19.575,0.0298,-0.0192,0.0128,0.0169,-0.0066,0.0138,33,0.52,-1.64,2.71,0.9979,0.0049,-0.0143,0.0237,14.127,1.909,498.206,13.681,1.856,482.663,259.448,35.732,9161.757,0
2025-05-30 17:27:35.319,0.127,-0.068,9.837,0.474,-0.048,19.55,-0.0724,0.0447,0.0639,-0.0636,0.0412,0.0587,33,-0.2,-1.34,2.89,0.9979,-0.0015,-0.0117,0.0252,14.138,1.908,498.685,13.696,1.858,483.158,260.133,35.825,9185.915,0
2025-05-30 17:27:35.371,0.136,-0.004,9.846,0.522,0.116,19.558,0.0213,-0.032,0.0895,0.0127,-0.0231,0.0862,33,0.37,-1.56,3.12,0.9978,0.0036,-0.0136,0.0273,14.149,1.908,499.163,13.71,1.859,483.654,260.819,35.918,9210.098,0
2025-05-30 17:27:35.426,0.178,-0.002,9.889,0.622,0.113,19.599,0.0724,0.0724,0.0021,0.0664,0.0645,0.0104,33,0.35,-1.91,3.16,0.9978,0.0035,-0.0166,0.0277,14.164,1.912,499.642,13.724,1.861,484.148,261.505,36.011,9234.305,0
2025-05-30 17:27:35.481,0.153,-0.043,9.862,0.487,0.001,19.575,-0.0277,0.0703,-0.0383,-0.0184,0.0713,-0.0337,33,-0.07,-1.27,3.07,0.9979,-0.0003,-0.0111,0.0269,14.177,1.913,500.121,13.738,1.862,484.642,262.192,36.104,9258.537,0
2025-05-30 17:27:35.534,0.154,-0.043,9.874,0.578,-0.002,19.585,-0.0937,-0.0085,-0.0383,-0.0863,0.001,-0.0381,33,-0.08,-1.79,2.96,0.9979,-0.0003,-0.0157,0.0259,14.19,1.911,500.599,13.752,1.864,485.136,262.879,36.198,9282.794,0
2025-05-30 17:27:35.588,0.138,-0.022,9.837,0.502,0.109,19.549,0.0618,-0.0256,0.0618,0.0469,-0.0213,0.0516,33,0.44,-1.44,3.1,0.9979,0.0042,-0.0125,0.0271,14.202,1.912,501.076,13.766,1.865,485.629,263.568,36.291,9307.075,0
2025-05-30 17:27:35.641,0.167,-0.004,9.851,0.547,0.1,19.563,0.049,0.1513,-0.0469,0.0487,0.1356,-0.0372,33,0.28,-1.54,3.0,0.9979,0.0028,-0.0134,0.0263,14.214,1.915,501.551,13.779,1.867,486.122,264.257,36.384,9331.381,0
2025-05-30 17:27:35.696,0.162,-0.043,9.851,0.584,-0.04,19.562,-0.0341,-0.0192,-0.0597,-0.0259,-0.0021,-0.0576,33,-0.31,-1.78,2.85,0.9979,-0.0023,-0.0156,0.0249,14.228,1.915,502.027,13.793,1.868,486.614,264.946,36.478,9355.712,0
2025-05-30 17:27:35.749,0.158,-0.016,9.849,0.579,0.04,19.56,-0.0874,-0.066,0.0383,-0.0813,-0.0581,0.0286,33,0.0,-1.77,2.92,0.9979,0.0004,-0.0155,0.0255,14.243,1.913,502.502,13.807,1.87,487.106,265.637,36.571,9380.067,0
2025-05-30 17:27:35.805,0.169,-0.005,9.858,0.545,0.119,19.57,-0.0447,0.0341,0.0064,-0.0485,0.0264,0.0084,33,0.4,-1.51,2.93,0.9979,0.0039,-0.0131,0.0256,14.257,1.915,502.977,13.821,1.871,487.597,266.328,36.665,9404.447,0
2025-05-30 17:27:35.857,0.133,-0.029,9.849,0.518,-0.007,19.561,-0.0064,-0.066,0.0383,-0.0107,-0.0552,0.0352,33,-0.19,-1.57,3.04,0.9979,-0.0013,-0.0137,0.0265,14.269,1.916,503.451,13.835,1.873,488.088,267.019,36.758,9428.852,0
2025-05-30 17:27:35.912,0.144,-0.007,9.862,0.497,0.105,19.575,-0.0192,0.0575,-0.0895,-0.0184,0.0478,-0.0772,33,0.33,-1.38,2.8,0.9979,0.0032,-0.012,0.0245,14.28,1.917,503.925,13.849,1.874,488.578,267.712,36.852,9453.28,0
2025-05-30 17:27:35.967,0.162,-0.027,9.838,0.611,0.029,19.549,-0.0064,-0.0383,-0.066,-0.0077,-0.0282,-0.0674,33,0.0,-1.94,2.62,0.9979,0.0004,-0.017,0.0229,14.294,1.918,504.398,13.863,1.875,489.068,268.405,36.946,9477.733,0
2025-05-30 17:27:36.020,0.117,-0.02,9.86,0.467,0.07,19.573,0.0021,0.017,-0.0639,0.001,0.0141,-0.0644,33,0.2,-1.36,2.43,0.998,0.002,-0.0119,0.0213,14.306,1.919,504.871,13.876,1.877,489.557,269.099,37.04,9502.211,0
2025-05-30 17:27:36.074,0.12,-0.027,9.855,0.562,0.001,19.565,0.0362,-0.0767,0.0043,0.0326,-0.0661,-0.0028,33,-0.16,-1.89,2.44,0.9979,-0.001,-0.0166,0.0213,14.318,1.918,505.344,13.89,1.878,490.046,269.793,37.133,9526.713,0
2025-05-30 17:27:36.128,0.108,-0.047,9.846,0.452,0.038,19.559,0.049,0.017,0.0213,0.0472,0.0103,0.0187,33,0.17,-1.33,2.48,0.998,0.0017,-0.0116,0.0217,14.329,1.917,505.815,13.904,1.879,490.534,270.488,37.227,9551.239,0
2025-05-30 17:27:36.183,0.122,-0.013,9.869,0.57,0.124,19.579,-0.0533,-0.0895,-0.1065,-0.0433,-0.0779,-0.0942,33,0.48,-1.93,2.2,0.998,0.0045,-0.0168,0.0193,14.34,1.92,506.287,13.917,1.881,491.022,271.184,37.321,9575.79,0
2025-05-30 17:27:36.236,0.136,-0.031,9.858,0.524,0.036,19.57,-0.0192,-0.0341,0.081,-0.0217,-0.0369,0.0633,33,0.07,-1.58,2.39,0.998,0.0009,-0.0138,0.0209,14.353,1.922,506.759,13.931,1.882,491.51,271.881,37.416,9600.365,0
2025-05-30 17:27:36.289,0.133,-0.018,9.864,0.455,0.121,19.577,-0.0085,0.0149,0.0043,-0.01,0.0113,0.01,33,0.49,-1.2,2.41,0.998,0.0045,-0.0104,0.0211,14.363,1.924,507.229,13.944,1.883,491.996,272.578,37.51,9624.965,0
2025-05-30 17:27:36.343,0.144,-0.002,9.849,0.569,0.068,19.56,-0.0554,-0.0426,-0.1278,-0.051,-0.0357,-0.1142,33,0.08,-1.8,2.09,0.998,0.001,-0.0157,0.0183,14.374,1.926,507.7,13.957,1.884,492.483,273.276,37.604,9649.589,0
2025-05-30 17:27:36.398,0.153,-0.034,9.851,0.454,0.06,19.565,0.0213,0.066,0.0021,0.014,0.0574,-0.0097,33,0.23,-1.07,2.06,0.9981,0.0021,-0.0093,0.018,14.385,1.928,508.169,13.971,1.886,492.969,273.975,37.698,9674.237,0
2025-05-30 17:27:36.452,0.153,-0.007,9.865,0.549,0.109,19.577,0.0256,-0.0043,0.0447,0.0243,0.0035,0.0391,33,0.35,-1.63,2.17,0.998,0.0034,-0.0142,0.019,14.396,1.93,508.639,13.984,1.887,493.454,274.674,37.793,9698.91,0
2025-05-30 17:27:36.507,0.149,-0.043,9.835,0.557,-0.038,19.546,-0.0405,-0.081,-0.032,-0.0341,-0.0709,-0.025,33,-0.29,-1.7,2.11,0.998,-0.0023,-0.0149,0.0184,14.409,1.93,509.107,13.997,1.889,493.939,275.374,37.887,9723.607,0
2025-05-30 17:27:36.560,0.124,-0.027,9.878,0.456,0.057,19.591,-0.0021,0.0597,0.0937,-0.0054,0.0482,0.0817,33,0.17,-1.26,2.33,0.998,0.0017,-0.0109,0.0204,14.42,1.928,509.575,14.01,1.89,494.423,276.074,37.981,9748.328,0
2025-05-30 17:27:36.616,0.138,-0.014,9.851,0.529,0.098,19.563,0.0021,0.0724,0.0383,0.0013,0.0716,0.0425,33,0.33,-1.6,2.45,0.998,0.0032,-0.0139,0.0215,14.43,1.93,510.044,14.023,1.891,494.907,276.775,38.076,9773.073,0
2025-05-30 17:27:36.674,0.131,-0.027,9.864,0.44,0.053,19.577,0.0937,0.0298,0.0618,0.0844,0.0356,0.0597,33,0.14,-1.12,2.63,0.998,0.0015,-0.0097,0.023,14.44,1.932,510.511,14.036,1.892,495.391,277.477,38.171,9797.843,0
2025-05-30 17:27:36.727,0.135,-0.052,9.851,0.561,0.006,19.562,0.0128,-0.0618,-0.0341,0.0198,-0.0505,-0.0249,33,0.01,-1.8,2.57,0.9979,0.0005,-0.0158,0.0224,14.451,1.931,510.978,14.049,1.894,495.874,278.18,38.265,9822.637,0
2025-05-30 17:27:36.832,0.138,-0.013,9.828,0.467,0.11,19.541,0.0085,0.049,-0.0277,0.0095,0.0406,-0.0276,33,0.39,-1.24,2.48,0.998,0.0037,-0.0107,0.0217,14.462,1.932,511.444,14.062,1.895,496.356,278.883,38.36,9847.454,0
2025-05-30 17:27:36.836,0.14,-0.029,9.853,0.569,0.017,19.564,-0.032,-0.0682,-0.1001,-0.0279,-0.0557,-0.0931,33,-0.06,-1.82,2.22,0.998,-0.0002,-0.0159,0.0194,14.473,1.933,511.909,14.075,1.896,496.838,279.586,38.455,9872.296,0
2025-05-30 17:27:36.888,0.151,-0.034,9.86,0.521,0.047,19.572,-0.0426,-0.0426,0.0959,-0.0413,-0.0424,0.0768,33,0.15,-1.48,2.43,0.998,0.0016,-0.0129,0.0213,14.486,1.932,512.375,14.087,1.897,497.32,280.291,38.55,9897.162,0
2025-05-30 17:27:36.942,0.138,-0.005,9.86,0.512,0.144,19.572,-0.0618,0.0213,-0.0788,-0.0598,0.0165,-0.0635,33,0.55,-1.5,2.24,0.998,0.0051,-0.013,0.0196,14.498,1.935,512.84,14.1,1.898,497.801,280.996,38.645,9922.052,0
2025-05-30 17:27:36.997,0.162,-0.014,9.842,0.565,0.051,19.554,0.0213,0.0192,0.0575,0.0131,0.0205,0.0452,33,0.06,-1.67,2.38,0.998,0.0008,-0.0146,0.0208,14.51,1.938,513.304,14.113,1.9,498.281,281.701,38.74,9946.966,0
2025-05-30 17:27:37.052,0.111,-0.022,9.865,0.434,0.056,19.579,-0.0597,-0.0277,-0.0767,-0.0525,-0.0213,-0.0647,33,0.13,-1.2,2.19,0.9981,0.0014,-0.0105,0.0192,14.52,1.939,513.768,14.126,1.901,498.761,282.408,38.835,9971.904,0
2025-05-30 17:27:37.105,0.138,-0.032,9.84,0.546,0.045,19.552,0.0,0.0298,-0.098,-0.0054,0.0263,-0.0949,33,0.13,-1.7,1.92,0.9981,0.0014,-0.0148,0.0168,14.53,1.939,514.232,14.138,1.902,499.241,283.115,38.93,9996.866,0
2025-05-30 17:27:37.158,0.145,-0.011,9.844,0.474,0.102,19.557,-0.0597,0.0064,0.1172,-0.0543,0.0099,0.0958,33,0.33,-1.23,2.18,0.9981,0.0031,-0.0107,0.0191,14.541,1.941,514.694,14.151,1.903,499.72,283.822,39.025,10021.853,0
2025-05-30 17:27:37.212,0.147,-0.011,9.849,0.524,0.135,19.561,0.1342,0.1044,0.0277,0.1153,0.0965,0.0343,33,0.53,-1.51,2.28,0.998,0.0049,-0.0131,0.02,14.552,1.945,515.157,14.163,1.905,500.198,284.53,39.12,10046.862,0
2025-05-30 17:27:37.266,0.14,-0.034,9.858,0.511,0.035,19.571,0.0405,-0.0043,0.1768,0.0478,0.0074,0.1624,33,0.08,-1.48,2.76,0.9979,0.001,-0.0129,0.0242,14.563,1.947,515.619,14.176,1.906,500.677,285.239,39.215,10071.896,0
2025-05-30 17:27:37.321,0.124,-0.013,9.849,0.409,0.132,19.563,-0.0405,0.1065,-0.1108,-0.0318,0.0982,-0.0837,33,0.52,-0.98,2.51,0.998,0.0048,-0.0084,0.022,14.571,1.95,516.08,14.188,1.907,501.154,285.948,39.311,10096.954,0
2025-05-30 17:27:37.376,0.151,-0.022,9.862,0.515,0.066,19.574,-0.017,0.0021,0.0831,-0.0186,0.0133,0.0662,33,0.19,-1.44,2.71,0.998,0.002,-0.0125,0.0237,14.58,1.953,516.542,14.2,1.909,501.631,286.658,39.406,10122.036,0
2025-05-30 17:27:37.429,0.147,-0.025,9.856,0.606,0.075,19.566,0.0575,0.0021,-0.0298,0.0498,0.0048,-0.0204,33,0.26,-1.99,2.65,0.9979,0.0027,-0.0174,0.0232,14.593,1.954,517.003,14.212,1.91,502.108,287.369,39.502,10147.142,0
2025-05-30 17:27:37.484,0.138,-0.029,9.86,0.518,0.047,19.572,-0.0149,-0.0405,-0.049,-0.0086,-0.0344,-0.0463,33,0.12,-1.53,2.52,0.998,0.0014,-0.0134,0.0221,14.607,1.955,517.463,14.225,1.912,502.584,288.08,39.597,10172.271,0
2025-05-30 17:27:37.537,0.14,-0.027,9.856,0.466,0.108,19.57,-0.0554,0.0085,0.0298,-0.0508,0.0058,0.022,33,0.46,-1.22,2.57,0.998,0.0043,-0.0106,0.0225,14.617,1.957,517.924,14.237,1.913,503.06,288.792,39.693,10197.424,0
2025-05-30 17:27:37.590,0.138,-0.029,9.838,0.516,0.053,19.551,0.0533,0.0298,0.1044,0.0427,0.029,0.096,33,0.16,-1.52,2.86,0.9979,0.0017,-0.0133,0.025,14.627,1.959,518.383,14.249,1.914,503.535,289.505,39.789,10222.601,0
2025-05-30 17:27:37.646,0.133,-0.002,9.853,0.494,0.218,19.564,0.098,-0.0447,-0.1278,0.0924,-0.0358,-0.1056,33,0.96,-1.43,2.54,0.9979,0.0087,-0.0123,0.0223,14.637,1.964,518.841,14.261,1.916,504.01,290.218,39.885,10247.801,0
2025-05-30 17:27:37.700,0.153,-0.032,9.844,0.534,0.048,19.556,-0.1087,-0.0021,0.0298,-0.0887,-0.0039,0.0161,33,0.15,-1.54,2.6,0.998,0.0016,-0.0135,0.0228,14.648,1.969,519.299,14.273,1.918,504.484,290.931,39.98,10273.025,0
2025-05-30 17:27:37.754,0.136,-0.022,9.853,0.489,0.13,19.565,0.0234,-0.1044,-0.1427,0.0121,-0.0928,-0.1271,33,0.56,-1.37,2.23,0.998,0.0052,-0.0119,0.0196,14.659,1.971,519.757,14.285,1.919,504.958,291.645,40.076,10298.273,0
2025-05-30 17:27:37.808,0.129,-0.04,9.853,0.49,0.012,19.566,-0.0064,0.0234,0.1257,-0.0047,0.0134,0.1002,33,-0.02,-1.42,2.53,0.998,0.0001,-0.0124,0.0221,14.669,1.973,520.215,14.297,1.921,505.431,292.36,40.172,10323.545,0
2025-05-30 17:27:37.862,0.136,-0.045,9.838,0.54,0.068,19.55,-0.0341,0.0405,-0.0533,-0.0313,0.0393,-0.0381,33,0.34,-1.67,2.41,0.998,0.0032,-0.0145,0.0211,14.68,1.972,520.671,14.309,1.923,505.904,293.076,40.269,10348.84,0
2025-05-30 17:27:37.916,0.135,-0.02,9.826,0.48,0.072,19.539,0.0788,-0.0597,-0.0447,0.0677,-0.0482,-0.0443,33,0.22,-1.33,2.29,0.998,0.0021,-0.0116,0.0201,14.691,1.974,521.127,14.321,1.924,506.377,293.792,40.365,10374.158,0
2025-05-30 17:27:37.968,0.131,-0.027,9.864,0.533,0.007,19.575,-0.0554,0.081,0.0469,-0.0432,0.0696,0.0376,33,-0.13,-1.66,2.41,0.998,-0.0008,-0.0145,0.021,14.701,1.974,521.583,14.333,1.926,506.848,294.508,40.461,10399.501,0
2025-05-30 17:27:38.022,0.131,-0.005,9.837,0.496,0.145,19.549,0.0703,-0.0234,-0.0256,0.0588,-0.0126,-0.0194,33,0.56,-1.45,2.34,0.998,0.0051,-0.0125,0.0205,14.712,1.975,522.038,14.345,1.927,507.32,295.226,40.557,10424.867,0
2025-05-30 17:27:38.078,0.119,-0.027,9.856,0.453,0.057,19.57,0.0618,0.032,0.0085,0.0614,0.0291,0.0055,33,0.17,-1.27,2.37,0.998,0.0017,-0.011,0.0207,14.721,1.978,522.493,14.356,1.929,507.791,295.943,40.654,10450.257,0
2025-05-30 17:27:38.132,0.154,-0.013,9.846,0.609,0.114,19.555,0.032,-0.0639,-0.1278,0.0348,-0.0531,-0.1147,33,0.42,-1.97,2.03,0.998,0.004,-0.0172,0.0178,14.733,1.981,522.948,14.368,1.931,508.261,296.662,40.75,10475.67,0
2025-05-30 17:27:38.185,0.153,-0.027,9.842,0.546,0.048,19.554,-0.0021,-0.0426,-0.0447,0.0014,-0.0421,-0.0519,33,0.12,-1.61,1.9,0.9981,0.0012,-0.0141,0.0166,14.747,1.983,523.402,14.38,1.932,508.731,297.381,40.847,10501.106,0
2025-05-30 17:27:38.239,0.127,0.016,9.856,0.442,0.153,19.57,-0.0511,0.0682,0.0,-0.046,0.0587,-0.0054,33,0.48,-1.15,1.87,0.9981,0.0043,-0.01,0.0164,14.757,1.986,523.855,14.392,1.934,509.201,298.1,40.944,10526.566,0
2025-05-30 17:27:38.294,0.165,-0.016,9.856,0.518,0.068,19.569,-0.017,0.1044,-0.0618,-0.0201,0.1014,-0.0563,33,0.17,-1.37,1.71,0.9981,0.0017,-0.012,0.015,14.766,1.989,524.309,14.403,1.936,509.67,298.821,41.04,10552.05,0
2025-05-30 17:27:38.346,0.156,-0.041,9.867,0.592,-0.006,19.578,-0.0277,0.0043,0.0405,-0.027,0.0155,0.0306,33,-0.12,-1.86,1.81,0.9981,-0.0008,-0.0163,0.0158,14.779,1.989,524.762,14.415,1.937,510.138,299.541,41.137,10577.557,0
2025-05-30 17:27:38.402,0.126,-0.029,9.842,0.476,0.088,19.555,0.0703,0.0021,-0.0128,0.0605,0.005,-0.0086,33,0.36,-1.36,1.78,0.9981,0.0033,-0.0119,0.0156,14.791,1.989,525.215,14.427,1.939,510.606,300.263,41.234,10603.087,0
2025-05-30 17:27:38.455,0.124,-0.041,9.876,0.487,-0.022,19.589,-0.0064,0.0064,0.1065,0.0002,0.0078,0.0948,33,-0.21,-1.43,2.06,0.9981,-0.0016,-0.0126,0.018,14.8,1.989,525.667,14.438,1.94,511.074,300.985,41.331,10628.641,0
2025-05-30 17:27:38.510,0.154,-0.011,9.878,0.507,0.107,19.591,0.0128,0.0895,-0.0021,0.0114,0.0829,0.0074,33,0.36,-1.37,2.07,0.9981,0.0034,-0.0119,0.0181,14.81,1.989,526.12,14.45,1.942,511.541,301.707,41.428,10654.218,0
2025-05-30 17:27:38.563,0.149,-0.027,9.846,0.533,0.042,19.558,0.049,0.0703,-0.0277,0.0451,0.0731,-0.0244,33,0.08,-1.55,2.01,0.9981,0.0009,-0.0136,0.0176,14.822,1.991,526.572,14.462,1.943,512.008,302.43,41.526,10679.818,0
2025-05-30 17:27:38.617,0.136,-0.016,9.872,0.468,0.159,19.585,0.0383,0.0107,0.0277,0.0389,0.0185,0.0223,33,0.7,-1.25,2.06,0.9981,0.0063,-0.0108,0.0181,14.832,1.994,527.023,14.473,1.945,512.474,303.154,41.623,10705.442,0
2025-05-30 17:27:38.675,0.16,-0.018,9.844,0.523,0.128,19.556,0.1087,0.0618,0.1683,0.1016,0.059,0.1535,33,0.53,-1.44,2.51,0.998,0.0049,-0.0124,0.022,14.842,1.999,527.473,14.485,1.947,512.94,303.878,41.72,10731.09,0
2025-05-30 17:27:38.730,0.133,-0.018,9.837,0.497,0.075,19.549,0.0895,0.0107,-0.0256,0.0906,0.0171,-0.0078,33,0.22,-1.44,2.5,0.998,0.0022,-0.0126,0.0219,14.852,2.002,527.923,14.496,1.948,513.405,304.603,41.818,10756.76,0
2025-05-30 17:27:38.785,0.11,-0.016,9.842,0.35,0.092,19.557,0.0064,0.0575,0.0341,0.0147,0.055,0.0297,33,0.31,-0.72,2.59,0.998,0.0029,-0.0062,0.0226,14.859,2.004,528.371,14.507,1.95,513.87,305.328,41.915,10782.453,0
2025-05-30 17:27:38.839,0.16,-0.022,9.846,0.509,0.052,19.559,-0.0533,-0.0341,0.0256,-0.0466,-0.0236,0.0258,33,0.11,-1.35,2.66,0.998,0.0012,-0.0118,0.0233,14.865,2.006,528.82,14.519,1.952,514.335,306.054,42.013,10808.17,0
2025-05-30 17:27:38.892,0.129,-0.038,9.851,0.569,0.061,19.561,0.0746,0.017,0.179,0.0623,0.0145,0.1635,33,0.25,-1.88,3.13,0.9978,0.0026,-0.0164,0.0274,14.877,2.007,529.268,14.53,1.954,514.798,306.781,42.11,10833.91,0
2025-05-30 17:27:38.946,0.136,-0.031,9.846,0.453,0.027,19.559,-0.0426,0.0618,-0.032,-0.0322,0.0586,-0.0126,33,0.01,-1.16,3.1,0.9979,0.0004,-0.0102,0.0271,14.888,2.007,529.716,14.541,1.955,515.262,307.508,42.208,10859.673,0
2025-05-30 17:27:39.001,0.127,-0.022,9.829,0.556,0.079,19.54,-0.0213,-0.0788,0.0703,-0.0225,-0.0635,0.0618,33,0.26,-1.82,3.27,0.9978,0.0028,-0.0158,0.0286,14.898,2.007,530.163,14.552,1.957,515.725,308.235,42.306,10885.459,0
2025-05-30 17:27:39.056,0.149,-0.027,9.855,0.428,0.03,19.569,-0.0149,0.1385,0.0959,-0.0158,0.1199,0.0923,33,0.01,-0.94,3.54,0.9978,0.0003,-0.0082,0.0309,14.908,2.008,530.609,14.563,1.958,516.187,308.964,42.404,10911.269,0
2025-05-30 17:27:39.109,0.14,-0.023,9.851,0.486,0.053,19.564,-0.0234,0.0426,-0.1726,-0.0228,0.0519,-0.1463,33,0.12,-1.34,3.12,0.9979,0.0014,-0.0117,0.0273,14.916,2.008,531.056,14.574,1.96,516.649,309.692,42.502,10937.101,0
2025-05-30 17:27:39.162,0.129,-0.023,9.855,0.558,0.098,19.565,-0.0085,-0.0043,0.0192,-0.0101,0.0029,0.0024,33,0.39,-1.82,3.12,0.9978,0.0038,-0.0158,0.0273,14.927,2.01,531.502,14.585,1.962,517.111,310.422,42.6,10962.956,0
2025-05-30 17:27:39.216,0.126,-0.036,9.856,0.487,0.03,19.569,0.0,-0.032,-0.0064,-0.0011,-0.0269,-0.0057,33,0.06,-1.43,3.11,0.9979,0.0009,-0.0125,0.0272,14.938,2.011,531.948,14.596,1.963,517.572,311.151,42.698,10988.835,0
2025-05-30 17:27:39.271,0.135,-0.023,9.856,0.572,0.109,19.567,-0.0575,-0.0937,-0.0469,-0.052,-0.0855,-0.0429,33,0.45,-1.87,2.97,0.9978,0.0044,-0.0163,0.026,14.95,2.013,532.394,14.607,1.965,518.033,311.882,42.796,11014.736,0
2025-05-30 17:27:39.324,0.144,-0.018,9.831,0.48,0.062,19.545,0.0128,0.0554,0.0,0.0062,0.0429,-0.0045,33,0.15,-1.28,2.97,0.9979,0.0016,-0.0111,0.0259,14.961,2.015,532.838,14.619,1.966,518.493,312.613,42.895,11040.661,0
2025-05-30 17:27:39.379,0.126,-0.045,9.86,0.521,-0.041,19.572,-0.0618,0.049,-0.0724,-0.0551,0.05,-0.0658,33,-0.3,-1.62,2.79,0.9979,-0.0023,-0.0143,0.0243,14.971,2.013,533.282,14.63,1.968,518.953,313.344,42.993,11066.608,0
2025-05-30 17:27:39.434,0.151,-0.034,9.867,0.576,0.053,19.578,-0.0277,-0.1044,-0.0426,-0.0305,-0.0874,-0.0451,33,0.18,-1.8,2.64,0.9979,0.002,-0.0157,0.0231,14.983,2.012,533.727,14.641,1.969,519.412,314.076,43.091,11092.579,0
2025-05-30 17:27:39.490,0.153,-0.014,9.871,0.468,0.072,19.585,-0.0511,0.0405,-0.0383,-0.0492,0.0293,-0.0392,33,0.18,-1.16,2.53,0.998,0.0018,-0.0101,0.0221,14.995,2.013,534.171,14.652,1.97,519.871,314.809,43.19,11118.572,0
2025-05-30 17:27:39.542,0.144,0.007,9.872,0.558,0.14,19.584,0.0128,-0.0298,0.0469,0.0065,-0.0224,0.0381,33,0.45,-1.73,2.63,0.9979,0.0043,-0.0151,0.023,15.005,2.016,534.615,14.663,1.972,520.329,315.542,43.289,11144.589,0
2025-05-30 17:27:39.599,0.167,-0.011,9.871,0.55,0.096,19.583,0.1491,-0.0085,0.0618,0.1348,-0.0083,0.0592,33,0.3,-1.55,2.81,0.9979,0.0029,-0.0135,0.0246,15.018,2.02,535.059,14.674,1.973,520.787,316.276,43.387,11170.628,0
2025-05-30 17:27:39.651,0.138,-0.029,9.876,0.52,-0.024,19.588,-0.0426,-0.0852,-0.0533,-0.025,-0.076,-0.0422,33,-0.29,-1.55,2.71,0.9979,-0.0023,-0.0136,0.0236,15.03,2.02,535.502,14.685,1.975,521.245,317.01,43.486,11196.69,0
2025-05-30 17:27:39.704,0.147,-0.04,9.853,0.513,0.059,19.565,-0.0064,0.0447,0.0533,-0.0084,0.0342,0.0435,33,0.25,-1.45,2.82,0.9979,0.0025,-0.0126,0.0246,15.04,2.019,535.944,14.696,1.976,521.702,317.745,43.585,11222.775,0
2025-05-30 17:27:39.761,0.147,-0.04,9.864,0.554,-0.013,19.575,0.0298,0.0149,0.0682,0.0259,0.0184,0.0655,33,-0.17,-1.69,3.02,0.9979,-0.0011,-0.0148,0.0263,15.052,2.018,536.386,14.707,1.978,522.158,318.48,43.684,11248.884,0
2025-05-30 17:27:39.813,0.102,-0.032,9.867,0.449,0.056,19.58,0.0064,-0.0447,-0.0256,0.0082,-0.0369,-0.0166,33,0.2,-1.34,2.96,0.9979,0.002,-0.0117,0.0259,15.062,2.017,536.827,14.718,1.979,522.615,319.216,43.783,11275.015,0
2025-05-30 17:27:39.864,0.138,-0.013,9.851,0.638,0.141,19.559,0.0767,-0.1342,0.0682,0.0697,-0.1229,0.0595,33,0.58,-2.23,3.12,0.9977,0.0056,-0.0194,0.0274,15.074,2.02,537.268,14.729,1.98,523.07,319.952,43.882,11301.168,0
2025-05-30 17:27:39.919,0.163,-0.034,9.89,0.62,0.031,19.6,-0.0724,-0.0682,0.081,-0.0583,-0.0721,0.0786,33,0.06,-1.98,3.36,0.9977,0.001,-0.0173,0.0293,15.09,2.023,537.709,14.741,1.981,523.526,320.689,43.981,11327.345,0
2025-05-30 17:27:39.974,0.147,-0.004,9.86,0.478,0.14,19.573,0.0746,0.1001,-0.0447,0.0612,0.0845,-0.0326,33,0.51,-1.24,3.26,0.9978,0.0048,-0.0107,0.0285,15.103,2.025,538.149,14.752,1.983,523.981,321.427,44.08,11353.544,0
2025-05-30 17:27:40.027,0.126,-0.029,9.858,0.507,0.066,19.57,0.081,-0.0277,-0.066,0.0789,-0.0149,-0.0629,33,0.23,-1.54,3.09,0.9979,0.0024,-0.0134,0.027,15.112,2.028,538.589,14.763,1.984,524.435,322.165,44.179,11379.766,0
2025-05-30 17:27:40.082,0.144,-0.013,9.872,0.454,0.17,19.586,0.017,0.0234,0.0383,0.0231,0.0212,0.028,33,0.74,-1.12,3.16,0.9979,0.0068,-0.0096,0.0277,15.121,2.032,539.028,14.774,1.986,524.889,322.904,44.278,11406.01,0
2025-05-30 17:27:40.137,0.154,-0.041,9.855,0.546,0.037,19.567,-0.0554,-0.0618,0.1087,-0.0477,-0.0519,0.1004,33,0.13,-1.6,3.46,0.9978,0.0016,-0.014,0.0302,15.131,2.035,539.467,14.786,1.987,525.343,323.643,44.378,11432.277,0
2025-05-30 17:27:40.191,0.151,0.009,9.856,0.512,0.212,19.568,0.0724,0.0426,0.0937,0.0603,0.0347,0.0942,33,0.86,-1.42,3.71,0.9977,0.0079,-0.0122,0.0325,15.142,2.039,539.905,14.797,1.989,525.796,324.383,44.477,11458.567,0
2025-05-30 17:27:40.244,0.142,-0.04,9.844,0.59,0.084,19.554,0.032,-0.1768,-0.0874,0.0347,-0.1541,-0.0694,33,0.4,-1.93,3.52,0.9977,0.004,-0.0168,0.0308,15.155,2.044,540.342,14.808,1.991,526.248,325.123,44.577,11484.88,0
2025-05-30 17:27:40.299,0.167,-0.016,9.849,0.501,0.068,19.563,0.0256,0.0874,-0.0554,0.0264,0.0648,-0.057,33,0.17,-1.26,3.37,0.9978,0.0018,-0.011,0.0295,15.167,2.046,540.779,14.819,1.992,526.7,325.864,44.676,11511.215,0
2025-05-30 17:27:40.354,0.126,-0.014,9.86,0.592,0.092,19.569,-0.0426,-0.1065,-0.0107,-0.0358,-0.0878,-0.0155,33,0.3,-2.04,3.32,0.9977,0.0031,-0.0177,0.029,15.179,2.048,541.215,14.83,1.994,527.152,326.606,44.776,11537.572,0
2025-05-30 17:27:40.406,0.153,-0.007,9.864,0.521,0.131,19.576,0.0895,0.0107,0.1236,0.0768,0.0024,0.1095,33,0.49,-1.46,3.63,0.9977,0.0047,-0.0126,0.0318,15.191,2.052,541.652,14.842,1.996,527.603,327.348,44.876,11563.952,0
2025-05-30 17:27:40.458,0.172,-0.02,9.88,0.55,0.045,19.592,0.0,0.1172,0.1704,0.0076,0.1073,0.1642,33,0.05,-1.52,4.12,0.9976,0.0009,-0.0133,0.036,15.203,2.054,542.088,14.853,1.998,528.054,328.091,44.976,11590.354,0
2025-05-30 17:27:40.512,0.122,-0.04,9.864,0.423,0.011,19.578,-0.1001,-0.0511,0.049,-0.0895,-0.0337,0.0603,33,-0.03,-1.07,4.28,0.9976,0.0001,-0.0094,0.0374,15.212,2.053,542.524,14.864,1.999,528.505,328.834,45.076,11616.779,0
2025-05-30 17:27:40.567,0.14,-0.034,9.844,0.476,0.097,19.557,0.1214,0.1321,0.0,0.1002,0.1171,0.0058,33,0.45,-1.28,4.29,0.9975,0.0043,-0.011,0.0376,15.219,2.053,542.959,14.875,2.001,528.955,329.578,45.176,11643.227,0
2025-05-30 17:27:40.620,0.162,-0.04,9.867,0.542,0.085,19.579,0.13,0.0405,-0.0341,0.1269,0.0497,-0.0303,33,0.4,-1.54,4.22,0.9975,0.004,-0.0133,0.0369,15.23,2.056,543.394,14.886,2.003,529.404,330.322,45.276,11669.696,0
2025-05-30 17:27:40.680,0.126,-0.034,9.865,0.475,0.011,19.578,0.0107,-0.0213,0.0064,0.0222,-0.0126,0.0025,33,-0.06,-1.35,4.24,0.9976,-0.0001,-0.0118,0.037,15.24,2.056,543.828,14.898,2.004,529.853,331.067,45.376,11696.188,0
2025-05-30 17:27:40.734,0.158,-0.018,9.851,0.594,0.065,19.562,-0.0788,-0.0469,-0.0213,-0.0688,-0.0419,-0.0191,33,0.16,-1.86,4.17,0.9975,0.002,-0.0162,0.0365,15.251,2.056,544.262,14.909,2.006,530.302,331.812,45.476,11722.703,0
2025-05-30 17:27:40.788,0.106,-0.009,9.872,0.434,0.11,19.586,0.0469,0.0298,-0.0234,0.0352,0.0242,-0.0232,33,0.37,-1.23,4.11,0.9976,0.0036,-0.0106,0.0359,15.262,2.058,544.695,14.92,2.008,530.75,332.558,45.577,11749.24,0
2025-05-30 17:27:40.843,0.135,-0.031,9.878,0.516,0.003,19.59,-0.0447,0.0362,0.0256,-0.0369,0.0366,0.0205,33,-0.13,-1.54,4.17,0.9976,-0.0006,-0.0135,0.0365,15.27,2.059,545.129,14.931,2.009,531.198,333.305,45.677,11775.8,0
2025-05-30 17:27:40.898,0.133,-0.022,9.864,0.487,0.138,19.576,0.0746,0.0043,-0.0575,0.0633,0.0091,-0.0499,33,0.61,-1.38,4.02,0.9976,0.0058,-0.0119,0.0352,15.28,2.06,545.562,14.942,2.011,531.645,334.052,45.778,11802.382,0
2025-05-30 17:27:40.953,0.149,-0.016,9.862,0.57,0.072,19.573,0.0298,-0.0639,-0.066,0.0331,-0.0551,-0.0646,33,0.19,-1.78,3.85,0.9976,0.0022,-0.0155,0.0336,15.291,2.063,545.994,14.952,2.012,532.092,334.799,45.878,11828.986,0
2025-05-30 17:27:41.008,0.145,-0.025,9.867,0.494,0.009,19.58,-0.115,-0.0533,-0.1513,-0.1003,-0.0519,-0.1428,33,-0.12,-1.35,3.44,0.9978,-0.0007,-0.0119,0.03,15.302,2.063,546.426,14.963,2.014,532.538,335.548,45.979,11855.613,0
2025-05-30 17:27:41.059,0.133,-0.032,9.862,0.52,0.062,19.574,-0.0597,0.0043,-0.0639,-0.0638,0.0002,-0.072,33,0.23,-1.58,3.22,0.9978,0.0024,-0.0137,0.0282,15.312,2.062,546.858,14.974,2.016,532.984,336.296,46.08,11882.263,0
2025-05-30 17:27:41.112,0.14,-0.014,9.876,0.44,0.139,19.59,0.1087,-0.0213,0.0639,0.0913,-0.0176,0.0501,33,0.57,-1.06,3.36,0.9978,0.0053,-0.0092,0.0294,15.321,2.065,547.289,14.985,2.017,533.43,337.046,46.181,11908.935,0
2025-05-30 17:27:41.166,0.144,-0.018,9.864,0.538,0.047,19.575,-0.0767,-0.0383,-0.0362,-0.06,-0.0347,-0.0278,33,0.05,-1.62,3.29,0.9978,0.0009,-0.0141,0.0288,15.33,2.068,547.72,14.996,2.019,533.875,337.795,46.282,11935.628,0
2025-05-30 17:27:41.221,0.163,-0.023,9.864,0.563,0.178,19.574,0.1044,0.032,0.1704,0.0878,0.0269,0.1504,33,0.85,-1.65,3.7,0.9977,0.0079,-0.0141,0.0325,15.342,2.072,548.15,15.007,2.02,534.32,338.546,46.383,11962.344,0
2025-05-30 17:27:41.275,0.127,-0.025,9.867,0.486,0.078,19.58,-0.0213,0.0213,-0.0107,-0.0105,0.0234,0.0053,33,0.28,-1.41,3.73,0.9977,0.0029,-0.0122,0.0327,15.353,2.076,548.58,15.018,2.022,534.764,339.297,46.484,11989.082,0
2025-05-30 17:27:41.327,0.153,-0.018,9.838,0.592,0.062,19.549,0.0234,0.0213,0.0021,0.0199,0.0231,0.0023,33,0.15,-1.88,3.75,0.9976,0.0018,-0.0164,0.0328,15.365,2.077,549.008,15.029,2.024,535.208,340.048,46.585,12015.843,0
2025-05-30 17:27:41.385,0.142,-0.022,9.835,0.472,0.076,19.548,0.0064,0.0234,0.0447,0.0076,0.025,0.0403,33,0.25,-1.24,3.86,0.9977,0.0025,-0.0108,0.0337,15.376,2.079,549.436,15.039,2.025,535.651,340.8,46.686,12042.625,0
2025-05-30 17:27:41.437,0.147,-0.018,9.86,0.577,0.035,19.571,-0.081,-0.0107,0.0149,-0.0722,-0.0055,0.0173,33,-0.01,-1.83,3.91,0.9976,0.0004,-0.016,0.0342,15.387,2.079,549.863,15.05,2.027,536.094,341.553,46.788,12069.43,0
2025-05-30 17:27:41.492,0.144,-0.036,9.856,0.464,0.062,19.57,0.0234,0.0447,0.0,0.0138,0.0413,0.0015,33,0.25,-1.18,3.91,0.9977,0.0025,-0.0103,0.0342,15.397,2.08,550.291,15.061,2.029,536.537,342.306,46.889,12096.257,0
2025-05-30 17:27:41.545,0.171,-0.032,9.847,0.548,0.033,19.56,-0.0256,0.081,0.0064,-0.0217,0.0786,0.0057,33,0.06,-1.52,3.93,0.9976,0.001,-0.0132,0.0343,15.407,2.08,550.718,15.072,2.03,536.979,343.059,46.991,12123.105,0
2025-05-30 17:27:41.599,0.154,-0.014,9.849,0.583,0.115,19.56,-0.0597,-0.0426,-0.1023,-0.056,-0.0289,-0.0917,33,0.44,-1.82,3.65,0.9977,0.0043,-0.0157,0.032,15.42,2.082,551.144,15.083,2.032,537.42,343.813,47.092,12149.977,0
2025-05-30 17:27:41.654,0.142,-0.043,9.851,0.483,0.014,19.564,0.0149,0.0575,0.0469,0.0077,0.0504,0.0328,33,0.01,-1.31,3.76,0.9977,0.0005,-0.0114,0.0329,15.431,2.082,551.57,15.094,2.034,537.861,344.568,47.194,12176.869,0
2025-05-30 17:27:41.722,0.127,-0.022,9.84,0.572,0.096,19.55,-0.0469,-0.1172,0.0256,-0.0415,-0.0988,0.0261,33,0.37,-1.91,3.82,0.9976,0.0037,-0.0166,0.0334,15.442,2.083,551.995,15.105,2.035,538.302,345.323,47.296,12203.784,0
2025-05-30 17:27:41.760,0.136,-0.005,9.849,0.534,0.068,19.561,-0.0597,-0.1023,-0.0724,-0.058,-0.1004,-0.0628,33,0.11,-1.64,3.64,0.9977,0.0014,-0.0143,0.0318,15.454,2.085,552.42,15.116,2.037,538.742,346.079,47.397,12230.722,0
2025-05-30 17:27:41.815,0.147,-0.045,9.858,0.512,-0.062,19.571,-0.0959,-0.1108,-0.0788,-0.0922,-0.1082,-0.0774,33,-0.42,-1.44,3.43,0.9978,-0.0033,-0.0127,0.0299,15.465,2.083,552.845,15.127,2.038,539.182,346.836,47.499,12257.681,0
2025-05-30 17:27:41.868,0.151,-0.013,9.856,0.543,0.086,19.568,0.0533,-0.0128,0.0,0.0386,-0.0208,-0.0079,33,0.25,-1.61,3.39,0.9978,0.0026,-0.014,0.0297,15.476,2.081,553.27,15.138,2.039,539.621,347.592,47.601,12284.662,0
2025-05-30 17:27:41.925,0.136,-0.025,9.847,0.425,0.044,19.562,0.0469,0.0469,-0.0107,0.0459,0.0417,-0.0106,33,0.08,-1.0,3.37,0.9978,0.001,-0.0087,0.0294,15.485,2.082,553.694,15.148,2.041,540.06,348.35,47.703,12311.665,0
2025-05-30 17:27:41.975,0.149,-0.025,9.858,0.519,0.028,19.571,-0.081,0.0277,-0.0959,-0.0684,0.0307,-0.0875,33,-0.01,-1.48,3.12,0.9979,0.0002,-0.0129,0.0272,15.493,2.082,554.117,15.159,2.042,540.498,349.108,47.805,12338.69,0
2025-05-30 17:27:42.032,0.142,-0.027,9.86,0.525,0.142,19.572,0.0554,0.0128,0.0874,0.0429,0.0161,0.0697,33,0.66,-1.55,3.3,0.9978,0.0062,-0.0134,0.0289,15.503,2.084,554.541,15.17,2.043,540.936,349.866,47.908,12365.737,0
2025-05-30 17:27:42.084,0.153,-0.025,9.876,0.551,0.08,19.588,0.0746,-0.0277,0.0362,0.0713,-0.0217,0.0394,33,0.29,-1.64,3.43,0.9978,0.003,-0.0143,0.03,15.515,2.088,554.964,15.181,2.045,541.374,350.625,48.01,12392.806,0
2025-05-30 17:27:42.140,0.138,-0.011,9.871,0.433,0.11,19.585,0.0746,0.0192,0.0298,0.0741,0.0166,0.0306,33,0.38,-1.04,3.52,0.9978,0.0036,-0.009,0.0308,15.524,2.09,555.388,15.192,2.046,541.811,351.385,48.112,12419.896,0
2025-05-30 17:27:42.192,0.142,-0.022,9.858,0.503,0.047,19.571,-0.0469,0.0533,0.0021,-0.0349,0.0512,0.0048,33,0.08,-1.42,3.54,0.9978,0.0011,-0.0124,0.0309,15.532,2.092,555.81,15.202,2.048,542.247,352.145,48.215,12447.009,0
2025-05-30 17:27:42.248,0.135,-0.009,9.883,0.521,0.112,19.595,-0.0937,-0.0149,-0.0554,-0.088,-0.0067,-0.0496,33,0.39,-1.57,3.38,0.9978,0.0038,-0.0137,0.0296,15.542,2.094,556.233,15.213,2.049,542.684,352.906,48.317,12474.143,0
2025-05-30 17:27:42.300,0.127,-0.007,9.846,0.452,0.088,19.559,0.0831,-0.0383,0.0128,0.0659,-0.0336,0.0064,33,0.23,-1.21,3.41,0.9978,0.0024,-0.0105,0.0298,15.55,2.097,556.654,15.224,2.051,543.119,353.667,48.42,12501.299,0
2025-05-30 17:27:42.354,0.122,-0.034,9.856,0.544,0.042,19.567,0.0639,-0.0256,0.1023,0.064,-0.0248,0.0925,33,0.12,-1.78,3.68,0.9977,0.0016,-0.0155,0.0322,15.56,2.098,557.075,15.234,2.052,543.555,354.429,48.522,12528.477,0
2025-05-30 17:27:42.408,0.126,-0.02,9.872,0.454,0.037,19.586,-0.1023,-0.0021,-0.0511,-0.0858,-0.0028,-0.037,33,0.01,-1.23,3.57,0.9978,0.0004,-0.0107,0.0312,15.569,2.098,557.496,15.245,2.054,543.99,355.191,48.625,12555.676,0
2025-05-30 17:27:42.464,0.129,-0.038,9.864,0.548,0.05,19.575,-0.0107,-0.0043,-0.0298,-0.0183,-0.0026,-0.0307,33,0.19,-1.76,3.48,0.9977,0.0021,-0.0153,0.0304,15.578,2.098,557.916,15.255,2.055,544.424,355.954,48.728,12582.897,0
2025-05-30 17:27:42.516,0.136,0.023,9.876,0.515,0.159,19.588,-0.0426,-0.0703,-0.0149,-0.0403,-0.062,-0.0167,33,0.47,-1.53,3.42,0.9978,0.0045,-0.0132,0.0299,15.589,2.101,558.336,15.266,2.056,544.858,356.717,48.83,12610.141,0
2025-05-30 17:27:42.573,0.136,-0.04,9.835,0.516,0.024,19.547,0.0639,-0.0192,0.1087,0.0534,-0.0219,0.0959,33,0.05,-1.53,3.71,0.9977,0.0009,-0.0134,0.0324,15.6,2.104,558.755,15.276,2.058,545.292,357.481,48.933,12637.405,0
2025-05-30 17:27:42.624,0.14,-0.041,9.831,0.494,0.098,19.544,-0.0192,-0.0618,0.0362,-0.012,-0.0562,0.042,33,0.49,-1.38,3.81,0.9977,0.0047,-0.0119,0.0334,15.609,2.105,559.173,15.287,2.059,545.725,358.245,49.036,12664.691,0
2025-05-30 17:27:42.684,0.138,-0.031,9.849,0.555,-0.004,19.56,-0.0469,-0.0682,-0.1108,-0.0435,-0.0654,-0.0957,33,-0.17,-1.75,3.55,0.9977,-0.001,-0.0153,0.031,15.62,2.105,559.59,15.297,2.061,546.158,359.01,49.139,12691.999,0
2025-05-30 17:27:42.738,0.129,-0.04,9.847,0.466,0.032,19.561,-0.0405,0.0192,-0.0618,-0.0409,0.0123,-0.0654,33,0.09,-1.28,3.36,0.9978,0.0011,-0.0111,0.0293,15.63,2.104,560.008,15.307,2.062,546.59,359.775,49.242,12719.328,0
2025-05-30 17:27:42.790,0.153,-0.02,9.855,0.602,0.052,19.565,-0.0746,-0.0533,-0.0447,-0.0713,-0.0451,-0.047,33,0.1,-1.94,3.22,0.9978,0.0013,-0.0169,0.0281,15.641,2.104,560.425,15.318,2.064,547.022,360.541,49.346,12746.68,0
2025-05-30 17:27:42.847,0.181,-0.029,9.858,0.488,0.08,19.572,0.0256,0.115,-0.0639,0.0158,0.1006,-0.0624,33,0.31,-1.1,3.04,0.9979,0.003,-0.0096,0.0266,15.652,2.105,560.842,15.328,2.065,547.454,361.307,49.449,12774.053,0
2025-05-30 17:27:42.900,0.149,-0.032,9.887,0.541,0.03,19.599,-0.0256,0.0,-0.0149,-0.0215,0.0116,-0.0199,33,0.04,-1.6,2.98,0.9979,0.0007,-0.014,0.0261,15.662,2.106,561.259,15.339,2.066,547.885,362.074,49.552,12801.447,0
2025-05-30 17:27:42.955,0.133,0.0,9.851,0.461,0.166,19.564,0.0405,0.0447,0.0362,0.0342,0.043,0.0304,33,0.65,-1.23,3.06,0.9979,0.006,-0.0106,0.0268,15.672,2.108,561.676,15.349,2.067,548.315,362.842,49.656,12828.863,0
2025-05-30 17:27:43.006,0.129,-0.022,9.862,0.441,0.062,19.576,0.0107,0.1257,0.0192,0.0129,0.119,0.0201,33,0.17,-1.13,3.13,0.9979,0.0017,-0.0099,0.0274,15.679,2.112,562.092,15.36,2.069,548.746,363.61,49.759,12856.301,0
2025-05-30 17:27:43.063,0.108,-0.032,9.858,0.483,0.078,19.57,0.098,0.0575,-0.0298,0.0894,0.0652,-0.025,33,0.32,-1.51,3.06,0.9979,0.0032,-0.0131,0.0268,15.686,2.113,562.508,15.37,2.07,549.175,364.378,49.863,12883.76,0
2025-05-30 17:27:43.116,0.145,-0.022,9.856,0.508,-0.019,19.569,-0.0405,0.0703,-0.0639,-0.0276,0.0714,-0.0602,33,-0.31,-1.43,2.91,0.9979,-0.0024,-0.0126,0.0254,15.695,2.113,562.923,15.38,2.072,549.605,365.147,49.966,12911.24,0
2025-05-30 17:27:43.170,0.129,-0.011,9.844,0.494,0.085,19.556,-0.0064,-0.0107,0.0085,-0.0086,-0.0009,0.0015,33,0.24,-1.45,2.9,0.9979,0.0024,-0.0126,0.0253,15.704,2.113,563.337,15.39,2.073,550.034,365.917,50.07,12938.742,0
2025-05-30 17:27:43.224,0.149,-0.036,9.849,0.617,0.042,19.559,0.1214,-0.0874,-0.1193,0.1083,-0.0771,-0.1074,33,0.13,-2.05,2.6,0.9979,0.0016,-0.0179,0.0227,15.716,2.114,563.75,15.401,2.074,550.462,366.687,50.173,12966.266,0
2025-05-30 17:27:43.278,0.136,-0.005,9.871,0.52,0.125,19.583,0.0469,-0.0149,-0.0128,0.0529,-0.0196,-0.0224,33,0.44,-1.56,2.53,0.998,0.0041,-0.0135,0.0222,15.729,2.116,564.164,15.411,2.076,550.89,367.457,50.277,12993.811,0
2025-05-30 17:27:43.333,0.12,-0.02,9.849,0.42,0.001,19.563,-0.0724,0.0618,0.066,-0.06,0.0552,0.057,33,-0.2,-1.07,2.7,0.998,-0.0015,-0.0094,0.0236,15.737,2.117,564.578,15.421,2.077,551.318,368.229,50.381,13021.376,0
2025-05-30 17:27:43.387,0.153,-0.013,9.856,0.525,0.097,19.569,0.0618,-0.0064,0.032,0.0495,0.0013,0.0343,33,0.32,-1.49,2.79,0.9979,0.0031,-0.013,0.0244,15.745,2.118,564.991,15.431,2.078,551.745,369.0,50.485,13048.963,0
2025-05-30 17:27:43.442,0.127,-0.038,9.838,0.512,0.006,19.551,0.0639,-0.0852,0.1214,0.0624,-0.075,0.1125,33,-0.07,-1.56,3.13,0.9978,-0.0002,-0.0136,0.0273,15.755,2.118,565.403,15.442,2.079,552.172,369.772,50.589,13076.571,0
2025-05-30 17:27:43.494,0.151,0.007,9.883,0.508,0.157,19.596,0.017,0.0724,0.1555,0.0215,0.0593,0.151,33,0.56,-1.4,3.54,0.9977,0.0052,-0.0121,0.031,15.765,2.12,565.815,15.452,2.081,552.598,370.545,50.693,13104.201,0
2025-05-30 17:27:43.548,0.154,-0.022,9.853,0.585,0.055,19.564,0.0256,-0.0703,-0.0469,0.025,-0.0558,-0.0273,33,0.12,-1.83,3.48,0.9977,0.0016,-0.0159,0.0304,15.776,2.123,566.227,15.462,2.082,553.024,371.318,50.797,13131.853,0
2025-05-30 17:27:43.603,0.158,-0.025,9.856,0.503,0.042,19.57,-0.0767,-0.017,-0.0085,-0.0666,-0.0194,-0.0106,33,0.07,-1.33,3.44,0.9978,0.0009,-0.0116,0.0301,15.788,2.123,566.638,15.472,2.083,553.449,372.091,50.901,13159.525,0
2025-05-30 17:27:43.656,0.127,-0.013,9.846,0.52,0.111,19.557,-0.0554,0.0043,-0.0085,-0.0566,0.0035,-0.0089,33,0.4,-1.61,3.41,0.9978,0.0039,-0.0139,0.0298,15.797,2.125,567.049,15.482,2.085,553.874,372.866,51.005,13187.219,0
2025-05-30 17:27:43.710,0.153,0.005,9.842,0.497,-0.016,19.555,-0.1257,0.0,0.0724,-0.1189,0.0019,0.0641,33,-0.45,-1.33,3.6,0.9977,-0.0035,-0.0117,0.0314,15.807,2.126,567.458,15.493,2.086,554.299,373.64,51.11,13214.934,0
2025-05-30 17:27:43.763,0.149,-0.002,9.867,0.501,0.065,19.58,0.0,0.0447,-0.0234,-0.012,0.042,-0.0149,33,0.07,-1.37,3.55,0.9978,0.001,-0.012,0.031,15.816,2.125,567.868,15.503,2.087,554.723,374.415,51.214,13242.67,0
2025-05-30 17:27:43.817,0.151,-0.027,9.856,0.552,0.062,19.568,-0.049,0.081,-0.049,-0.0454,0.0786,-0.0458,33,0.2,-1.66,3.41,0.9978,0.0022,-0.0144,0.0298,15.827,2.126,568.278,15.513,2.088,555.147,375.191,51.319,13270.428,0
2025-05-30 17:27:43.873,0.135,-0.032,9.849,0.422,-0.002,19.564,-0.0575,0.0383,-0.0746,-0.0564,0.0439,-0.0719,33,-0.15,-0.99,3.21,0.9979,-0.001,-0.0087,0.028,15.835,2.125,568.687,15.523,2.09,555.57,375.967,51.423,13298.206,0
2025-05-30 17:27:43.925,0.145,-0.027,9.858,0.536,0.07,19.57,0.049,-0.049,0.0426,0.0383,-0.0381,0.031,33,0.25,-1.6,3.29,0.9978,0.0025,-0.0139,0.0288,15.843,2.125,569.096,15.533,2.091,555.993,376.744,51.528,13326.006,0
2025-05-30 17:27:43.977,0.153,-0.05,9.847,0.541,-0.066,19.559,-0.0362,-0.0107,0.1534,-0.0289,-0.0118,0.141,33,-0.42,-1.59,3.71,0.9977,-0.0032,-0.014,0.0323,15.854,2.123,569.504,15.543,2.092,556.416,377.521,51.632,13353.826,0
2025-05-30 17:27:44.034,0.133,-0.023,9.829,0.478,0.096,19.542,0.0937,0.0554,0.0298,0.0814,0.0502,0.0408,33,0.37,-1.33,3.81,0.9977,0.0036,-0.0115,0.0333,15.864,2.122,569.911,15.553,2.093,556.838,378.299,51.737,13381.668,0
2025-05-30 17:27:44.087,0.154,-0.02,9.88,0.531,0.008,19.592,-0.098,0.1087,-0.1087,-0.0802,0.1044,-0.0939,33,-0.16,-1.51,3.55,0.9977,-0.001,-0.0133,0.031,15.873,2.122,570.319,15.563,2.094,557.259,379.077,51.841,13409.531,0
2025-05-30 17:27:44.142,0.149,-0.048,9.838,0.568,0.097,19.549,0.0618,-0.0575,0.0234,0.0475,-0.0398,0.0115,33,0.53,-1.76,3.57,0.9977,0.0051,-0.0152,0.0312,15.885,2.122,570.726,15.574,2.095,557.68,379.855,51.946,13437.415,0
2025-05-30 17:27:44.196,0.131,-0.013,9.864,0.483,0.08,19.576,0.0213,-0.0107,-0.0746,0.0238,-0.012,-0.0661,33,0.22,-1.37,3.39,0.9978,0.0023,-0.0119,0.0296,15.895,2.125,571.132,15.584,2.095,558.101,380.635,52.051,13465.32,0
2025-05-30 17:27:44.253,0.142,-0.025,9.822,0.607,0.044,19.532,-0.0021,-0.0447,-0.1193,0.0004,-0.0399,-0.1142,33,0.08,-2.03,3.07,0.9978,0.0012,-0.0178,0.0268,15.906,2.126,571.538,15.594,2.096,558.521,381.414,52.156,13493.246,0
2025-05-30 17:27:44.304,0.144,-0.004,9.862,0.54,0.113,19.573,0.0192,-0.0447,-0.0213,0.0172,-0.0427,-0.0308,33,0.36,-1.63,2.97,0.9979,0.0035,-0.0142,0.026,15.919,2.127,571.943,15.604,2.097,558.941,382.195,52.261,13521.193,0
2025-05-30 17:27:44.359,0.144,-0.02,9.853,0.463,0.009,19.566,-0.017,0.0533,0.1065,-0.0137,0.0452,0.0926,33,-0.16,-1.18,3.25,0.9979,-0.0011,-0.0103,0.0284,15.928,2.128,572.349,15.614,2.098,559.361,382.975,52.366,13549.161,0
2025-05-30 17:27:44.412,0.129,-0.036,9.858,0.547,0.063,19.569,0.0,-0.0746,-0.1108,-0.0015,-0.061,-0.0906,33,0.25,-1.75,2.98,0.9979,0.0026,-0.0153,0.0261,15.938,2.127,572.754,15.624,2.099,559.78,383.757,52.471,13577.15,0
2025-05-30 17:27:44.467,0.136,-0.016,9.853,0.462,0.039,19.566,-0.0788,-0.0064,-0.017,-0.0712,-0.0103,-0.0246,33,-0.0,-1.21,2.91,0.9979,0.0003,-0.0106,0.0254,15.947,2.128,573.158,15.635,2.1,560.198,384.538,52.576,13605.16,0
2025-05-30 17:27:44.521,0.133,-0.027,9.856,0.564,0.095,19.567,0.0362,-0.0575,-0.0107,0.0254,-0.0512,-0.0122,33,0.39,-1.83,2.87,0.9979,0.0038,-0.0159,0.0251,15.956,2.129,573.563,15.645,2.101,560.616,385.32,52.681,13633.191,0
2025-05-30 17:27:44.574,0.151,-0.034,9.86,0.478,0.079,19.573,0.1364,0.0831,0.0639,0.1251,0.0712,0.0561,33,0.34,-1.23,3.04,0.9979,0.0032,-0.0107,0.0266,15.967,2.131,573.967,15.655,2.102,561.034,386.103,52.786,13661.243,0
2025-05-30 17:27:44.627,0.133,-0.065,9.851,0.544,-0.087,19.562,-0.13,-0.0852,0.0597,-0.1046,-0.068,0.0591,33,-0.45,-1.72,3.22,0.9978,-0.0035,-0.0151,0.0281,15.976,2.129,574.37,15.665,2.103,561.451,386.886,52.891,13689.315,0
2025-05-30 17:27:44.689,0.135,-0.031,9.831,0.49,0.032,19.544,0.0021,0.0511,0.1172,-0.0087,0.0408,0.1112,33,0.04,-1.39,3.52,0.9978,0.0008,-0.0121,0.0308,15.986,2.126,574.772,15.675,2.104,561.868,387.67,52.996,13717.409,0
2025-05-30 17:27:44.740,0.154,-0.014,9.835,0.568,0.104,19.546,-0.0256,0.0213,0.0,-0.024,0.0248,0.0109,33,0.37,-1.73,3.54,0.9977,0.0037,-0.015,0.031,15.996,2.127,575.174,15.685,2.105,562.285,388.454,53.101,13745.523,0
2025-05-30 17:27:44.795,0.115,-0.038,9.855,0.453,0.068,19.568,0.1023,-0.0149,-0.0788,0.0895,-0.0094,-0.07,33,0.3,-1.29,3.35,0.9978,0.0029,-0.0112,0.0293,16.006,2.129,575.576,15.695,2.105,562.701,389.239,53.207,13773.658,0
2025-05-30 17:27:44.848,0.147,-0.043,9.849,0.534,0.0,19.561,-0.0064,0.0575,-0.0107,0.0031,0.0524,-0.0168,33,-0.07,-1.57,3.32,0.9978,-0.0002,-0.0137,0.029,16.015,2.129,575.977,15.705,2.106,563.116,390.025,53.312,13801.814,0
2025-05-30 17:27:44.903,0.126,-0.047,9.856,0.418,0.066,19.57,0.0192,0.032,-0.0128,0.0175,0.0356,-0.0134,33,0.34,-1.02,3.27,0.9979,0.0032,-0.0089,0.0286,16.022,2.128,576.379,15.715,2.107,563.532,390.81,53.417,13829.991,0
2025-05-30 17:27:44.956,0.136,-0.023,9.855,0.516,0.036,19.567,-0.0533,0.0085,0.0469,-0.0463,0.0128,0.0407,33,0.02,-1.53,3.39,0.9978,0.0006,-0.0134,0.0296,16.03,2.128,576.78,15.725,2.108,563.946,391.597,53.523,13858.188,0
2025-05-30 17:27:45.009,0.158,0.011,9.846,0.533,0.203,19.557,0.0916,0.0554,0.0234,0.0777,0.0527,0.025,33,0.8,-1.51,3.45,0.9977,0.0074,-0.0129,0.0302,16.04,2.132,577.18,15.735,2.108,564.361,392.383,53.628,13886.406,0
2025-05-30 17:27:45.066,0.167,-0.022,9.883,0.592,0.061,19.594,-0.0426,-0.066,-0.0128,-0.0307,-0.0526,-0.0092,33,0.16,-1.8,3.44,0.9977,0.0019,-0.0156,0.03,16.052,2.137,577.581,15.745,2.109,564.775,393.171,53.733,13914.645,0
2025-05-30 17:27:45.119,0.131,-0.002,9.847,0.467,0.108,19.561,-0.0256,0.0021,0.0,-0.0262,-0.0018,-0.0011,33,0.32,-1.28,3.43,0.9978,0.0031,-0.0111,0.03,16.062,2.139,577.981,15.755,2.11,565.188,393.958,53.839,13942.904,0
2025-05-30 17:27:45.174,0.12,-0.04,9.838,0.524,-0.022,19.55,-0.0085,-0.0554,-0.0575,-0.0104,-0.0485,-0.0521,33,-0.22,-1.67,3.29,0.9978,-0.0015,-0.0147,0.0287,16.071,2.139,578.38,15.765,2.111,565.601,394.747,53.945,13971.185,0
2025-05-30 17:27:45.227,0.12,-0.034,9.853,0.494,0.04,19.565,-0.0469,-0.0703,-0.1364,-0.0433,-0.0666,-0.1281,33,0.11,-1.5,2.91,0.9979,0.0013,-0.0131,0.0255,16.08,2.137,578.778,15.775,2.112,566.014,395.535,54.05,13999.485,0
2025-05-30 17:27:45.281,0.149,-0.023,9.853,0.612,0.11,19.562,-0.0383,-0.0639,-0.0107,-0.039,-0.0626,-0.0226,33,0.46,-2.02,2.83,0.9978,0.0044,-0.0175,0.0248,16.092,2.139,579.177,15.785,2.113,566.426,396.325,54.156,14027.807,0
2025-05-30 17:27:45.337,0.124,-0.013,9.858,0.534,0.076,19.57,-0.0298,-0.0852,-0.0852,-0.0309,-0.0814,-0.0791,33,0.19,-1.71,2.61,0.9979,0.002,-0.0149,0.0228,16.104,2.141,579.575,15.795,2.114,566.838,397.114,54.261,14056.148,0
2025-05-30 17:27:45.390,0.135,-0.032,9.856,0.444,0.032,19.57,0.0021,0.0213,0.0085,-0.0013,0.0126,-0.0004,33,0.05,-1.12,2.61,0.998,0.0007,-0.0098,0.0228,16.113,2.142,579.973,15.805,2.115,567.25,397.905,54.367,14084.511,0
2025-05-30 17:27:45.444,0.145,-0.016,9.847,0.563,0.097,19.558,0.0298,-0.0447,0.1513,0.0266,-0.0374,0.1359,33,0.34,-1.75,3.0,0.9978,0.0034,-0.0152,0.0262,16.122,2.143,580.37,15.815,2.116,567.661,398.695,54.473,14112.894,0
2025-05-30 17:27:45.496,0.14,-0.016,9.865,0.487,0.087,19.578,0.066,-0.0405,0.0469,0.062,-0.0386,0.0556,33,0.28,-1.34,3.16,0.9979,0.0028,-0.0117,0.0277,16.132,2.145,580.767,15.825,2.117,568.072,399.487,54.579,14141.297,0
2025-05-30 17:27:45.548,0.145,-0.04,9.862,0.543,0.04,19.574,0.0959,0.049,0.032,0.0924,0.0418,0.0341,33,0.14,-1.63,3.27,0.9978,0.0017,-0.0142,0.0286,16.141,2.146,581.164,15.835,2.118,568.482,400.278,54.685,14169.721,0
2025-05-30 17:27:45.607,0.144,-0.011,9.871,0.473,0.179,19.583,0.0746,-0.0064,-0.1065,0.0762,-0.0,-0.0926,33,0.78,-1.24,2.99,0.9979,0.0071,-0.0107,0.0262,16.151,2.15,581.561,15.845,2.119,568.892,401.071,54.791,14198.165,0
2025-05-30 17:27:45.659,0.162,-0.016,9.846,0.586,0.076,19.557,-0.0469,-0.0874,0.0298,-0.0347,-0.0771,0.0174,33,0.22,-1.79,3.05,0.9978,0.0023,-0.0156,0.0267,16.161,2.154,581.957,15.855,2.12,569.301,401.863,54.897,14226.63,0
2025-05-30 17:27:45.714,0.154,-0.022,9.864,0.466,0.131,19.577,0.1641,0.0405,0.0746,0.1441,0.0303,0.0687,33,0.57,-1.14,3.25,0.9978,0.0052,-0.0098,0.0285,16.171,2.157,582.352,15.865,2.121,569.71,402.657,55.003,14255.115,0
2025-05-30 17:27:45.767,0.153,-0.023,9.856,0.533,0.057,19.569,-0.032,0.0085,0.0682,-0.0145,0.0123,0.068,33,0.15,-1.54,3.46,0.9978,0.0017,-0.0134,0.0302,16.18,2.16,582.748,15.875,2.122,570.119,403.45,55.109,14283.621,0
2025-05-30 17:27:45.822,0.136,-0.052,9.86,0.489,-0.084,19.573,-0.0469,-0.0234,-0.0043,-0.0437,-0.0183,0.0028,33,-0.51,-1.38,3.48,0.9978,-0.0041,-0.0122,0.0303,16.189,2.157,583.143,15.885,2.123,570.527,404.245,55.215,14312.147,0
2025-05-30 17:27:45.875,0.119,-0.016,9.865,0.485,0.046,19.578,-0.0043,-0.0298,0.0447,-0.0083,-0.0271,0.0404,33,0.04,-1.45,3.58,0.9977,0.0007,-0.0127,0.0313,16.197,2.154,583.537,15.895,2.124,570.935,405.039,55.321,14340.694,0
2025-05-30 17:27:45.929,0.144,-0.034,9.831,0.539,0.115,19.543,0.0341,0.0831,0.0724,0.0297,0.0736,0.069,33,0.55,-1.62,3.77,0.9977,0.0052,-0.014,0.033,16.207,2.155,583.931,15.905,2.125,571.342,405.835,55.427,14369.262,0
2025-05-30 17:27:45.984,0.138,-0.02,9.858,0.469,0.055,19.572,0.0383,0.0597,0.0469,0.0374,0.0626,0.0489,33,0.12,-1.24,3.92,0.9977,0.0014,-0.0108,0.0343,16.216,2.158,584.324,15.914,2.126,571.749,406.63,55.534,14397.85,0
2025-05-30 17:27:46.038,0.158,-0.005,9.844,0.562,0.076,19.555,-0.0852,0.0234,-0.017,-0.0731,0.0289,-0.0106,33,0.15,-1.68,3.89,0.9976,0.0018,-0.0146,0.034,16.225,2.159,584.716,15.924,2.127,572.156,407.427,55.64,14426.457,0
2025-05-30 17:27:46.091,0.136,-0.02,9.858,0.442,0.074,19.572,-0.0234,0.0064,0.0277,-0.0285,0.0102,0.0237,33,0.22,-1.1,3.95,0.9977,0.0023,-0.0095,0.0345,16.234,2.16,585.109,15.934,2.128,572.562,408.223,55.746,14455.085,0
2025-05-30 17:27:46.145,0.153,-0.031,9.855,0.53,0.021,19.567,-0.0554,0.0533,0.0149,-0.0528,0.0505,0.0156,33,-0.02,-1.52,4.0,0.9976,0.0003,-0.0133,0.0349,16.242,2.16,585.501,15.944,2.129,572.968,409.02,55.853,14483.733,0
2025-05-30 17:27:46.199,0.153,-0.047,9.851,0.568,0.162,19.561,0.1981,0.0533,0.0469,0.1729,0.0546,0.0436,33,0.9,-1.74,4.11,0.9975,0.0084,-0.0149,0.036,16.253,2.163,585.893,15.953,2.13,573.373,409.818,55.959,14512.402,0
2025-05-30 17:27:46.253,0.136,-0.022,9.858,0.55,0.107,19.569,0.0085,-0.0788,0.0234,0.0249,-0.0639,0.0253,33,0.43,-1.73,4.19,0.9975,0.0043,-0.015,0.0367,16.265,2.167,586.285,15.963,2.132,573.778,410.616,56.066,14541.091,0
2025-05-30 17:27:46.308,0.133,-0.041,9.838,0.468,0.055,19.552,0.1023,0.049,0.0277,0.0944,0.0393,0.0273,33,0.24,-1.27,4.29,0.9975,0.0025,-0.011,0.0375,16.274,2.169,586.675,15.973,2.133,574.183,411.415,56.173,14569.8,0
2025-05-30 17:27:46.361,0.147,-0.034,9.86,0.553,-0.007,19.571,-0.0831,0.0383,-0.0724,-0.0655,0.04,-0.0627,33,-0.17,-1.68,4.11,0.9976,-0.0009,-0.0148,0.0359,16.283,2.169,587.066,15.983,2.134,574.587,412.214,56.279,14598.529,0
2025-05-30 17:27:46.414,0.162,-0.025,9.849,0.56,0.071,19.561,-0.0533,-0.0234,0.0383,-0.0546,-0.0155,0.0281,33,0.24,-1.64,4.18,0.9975,0.0026,-0.0143,0.0365,16.295,2.168,587.456,15.993,2.135,574.99,413.014,56.386,14627.279,0
2025-05-30 17:27:46.472,0.129,-0.022,9.869,0.416,0.002,19.583,-0.1129,0.0383,-0.0128,-0.1072,0.0345,-0.0089,33,-0.19,-0.99,4.15,0.9976,-0.0013,-0.0087,0.0363,16.303,2.168,587.846,16.003,2.136,575.394,413.814,56.493,14656.049,0
2025-05-30 17:27:46.524,0.144,-0.016,9.842,0.514,0.027,19.555,-0.0767,-0.0192,0.032,-0.0799,-0.0122,0.0277,33,-0.07,-1.47,4.23,0.9975,-0.0001,-0.0129,0.0369,16.31,2.166,588.236,16.012,2.137,575.797,414.614,56.6,14684.839,0
2025-05-30 17:27:46.575,0.142,-0.018,9.844,0.549,0.088,19.555,-0.0703,-0.0511,-0.032,-0.0714,-0.0457,-0.0262,33,0.29,-1.69,4.14,0.9975,0.0031,-0.0147,0.0362,16.32,2.167,588.624,16.022,2.138,576.199,415.415,56.707,14713.648,0
2025-05-30 17:27:46.635,0.154,-0.023,9.844,0.463,-0.002,19.558,-0.017,0.0767,0.1065,-0.0226,0.066,0.0931,33,-0.2,-1.12,4.41,0.9975,-0.0014,-0.0098,0.0385,16.329,2.167,589.013,16.032,2.139,576.601,416.217,56.814,14742.479,0
2025-05-30 17:27:46.691,0.169,-0.025,9.828,0.555,0.076,19.54,0.0597,0.0,-0.0085,0.0513,0.0082,0.0014,33,0.27,-1.57,4.41,0.9975,0.0028,-0.0136,0.0386,16.338,2.167,589.4,16.041,2.14,577.003,417.019,56.921,14771.329,0
2025-05-30 17:27:46.743,0.127,-0.013,9.858,0.442,0.059,19.572,-0.0469,-0.0618,-0.0383,-0.0372,-0.0532,-0.0346,33,0.1,-1.15,4.31,0.9976,0.0012,-0.01,0.0377,16.347,2.168,589.787,16.051,2.141,577.404,417.822,57.028,14800.199,0
2025-05-30 17:27:46.798,0.154,-0.032,9.858,0.528,0.073,19.57,0.0618,0.0916,-0.0085,0.0518,0.0787,-0.0113,33,0.29,-1.5,4.28,0.9975,0.0031,-0.013,0.0374,16.354,2.169,590.175,16.061,2.142,577.805,418.625,57.135,14829.09,0
2025-05-30 17:27:46.853,0.136,-0.022,9.851,0.503,0.023,19.564,0.0767,-0.0192,0.0064,0.0741,-0.0078,0.0044,33,-0.06,-1.45,4.3,0.9975,-0.0001,-0.0127,0.0376,16.364,2.169,590.562,16.07,2.143,578.206,419.428,57.242,14858.0,0
2025-05-30 17:27:46.906,0.151,0.009,9.849,0.546,0.135,19.561,-0.0405,-0.0107,-0.0895,-0.0291,-0.0088,-0.0803,33,0.41,-1.62,4.06,0.9976,0.0041,-0.0141,0.0355,16.374,2.171,590.949,16.08,2.143,578.606,420.232,57.349,14886.931,0
